{
    "type": "FeatureCollection",
    "features": [
        {
            "type": "Feature",
            "properties": {
                "name": "Spa-Francorchamps",
                "img": "/img/spa.jpg"
            },
            "geometry": {
                "type": "Point",
                "coordinates": [
                    5.971755981445312,
                    50.46001758399631
                ]
            }
        },
        {
            "type": "Feature",
            "properties": {
                "name": "Monza",
                "img": "/img/monza.jfif"
            },
            "geometry": {
                "type": "Point",
                "coordinates": [
                    9.275894165039062,
                    45.58473142874248
                ]
            }
        },
        {
            "type": "Feature",
            "properties": {
                "name": "Suzuka",
                "img": "/img/suzuka.jfif"
            },
            "geometry": {
                "type": "Point",
                "coordinates": [
                    136.58443450927734,
                    34.88226973385947
                ]
            }
        },
        {
            "type": "Feature",
            "properties": {
                "name": "Sakhir",
                "img": "/img/barein-night.jpg"
            },
            "geometry": {
                "type": "Point",
                "coordinates": [
                    50.56114196777343,
                    25.91790858016148
                ]
            }
        },
        {
            "type": "Feature",
            "properties": {
                "name": "Melbourne",
                "img": "/img/circuito-albert-park-melbourne.jpg"
            },
            "geometry": {
                "type": "Point",
                "coordinates": [
                    144.95773315429685,
                    -37.81737834565081
                ]
            }
        },
        {
            "type": "Feature",
            "properties": {
                "name": "Monaco",
                "img": "/img/monaco.jpg"
            },
            "geometry": {
                "type": "Point",
                "coordinates": [
                    7.426586151123048,
                    43.74022024121569
                ]
            }
        },
        {
            "type": "Feature",
            "properties": {
                "name": "Sepang",
                "img": "/img/Sepang-International.jpg"
            },
            "geometry": {
                "type": "Point",
                "coordinates": [
                    101.7317023954498,
                    2.7596608750643026
                ]
            }
        },
        {
            "type": "Feature",
            "properties": {
                "name": "Interlagos",
                "img": "/img/interlagos.jpeg"
            },
            "geometry": {
                "type": "Point",
                "coordinates": [
                    -46.697369518674165,
                    -23.70020117210225
                ]
            }
        }
    ]
}